[
    {
        "id": 519188,
        "name": "Novinki",
        "country": "RU",
        "coord": {
          "lon": 37.666668,
          "lat": 55.683334
        }
      },
    
      {
        "id": 529334,
        "name": "Mar’ina Roshcha",
        "country": "RU",
        "coord": {
          "lon": 37.611111,
          "lat": 55.796391
        }
      },
    
      {
        "id": 473537,
        "name": "Vinogradovo",
        "country": "RU",
        "coord": {
          "lon": 38.545555,
          "lat": 55.423332
        }
      },
      
      {
        "id": 569143,
        "name": "Cherkizovo",
        "country": "RU",
        "coord": {
          "lon": 37.728889,
          "lat": 55.800835
        }
      },
    
      {
        "id": 464176,
        "name": "Zavety Il’icha",
        "country": "RU",
        "coord": {
          "lon": 37.849998,
          "lat": 56.049999
        }
      },
      
      {
        "id": 464737,
        "name": "Zaponor’ye",
        "country": "RU",
        "coord": {
          "lon": 38.861942,
          "lat": 55.639999
        }
      },
      
      {
        "id": 803611,
        "name": "Yurevichi",
        "country": "RU",
        "coord": {
          "lon": 39.934444,
          "lat": 43.600555
        }
      },
      
      {
        "id": 2051302,
        "name": "Priiskovyy",
        "country": "RU",
        "coord": {
          "lon": 132.822495,
          "lat": 42.819168
        }
      },
      {
        "id": 563692,
        "name": "Dzhaga",
        "country": "RU",
        "coord": {
          "lon": 42.650002,
          "lat": 43.25
        }
      },
      {
        "id": 481725,
        "name": "Tret’ya Rota",
        "country": "RU",
        "coord": {
          "lon": 39.681389,
          "lat": 43.741943
        }
      },
      
      {
        "id": 2017370,
        "name": "Russian Federation",
        "country": "RU",
        "coord": {
          "lon": 100,
          "lat": 60
        }
      },
      {
        "id": 2045761,
        "name": "De-Friz",
        "country": "RU",
        "coord": {
          "lon": 131.991394,
          "lat": 43.27861
        }
      },
      
      {
        "id": 476350,
        "name": "Vavibet",
        "country": "RU",
        "coord": {
          "lon": 34.916668,
          "lat": 67.933334
        }
      },
      
      {
        "id": 475279,
        "name": "Verkhneye Shchekotikhino",
        "country": "RU",
        "coord": {
          "lon": 36.133331,
          "lat": 53
        }
      },
      
      {
        "id": 802899,
        "name": "Mutaykutan",
        "country": "RU",
        "coord": {
          "lon": 47.660641,
          "lat": 42.818859
        }
      },
      {
        "id": 523523,
        "name": "Nalchik",
        "country": "RU",
        "coord": {
          "lon": 43.618889,
          "lat": 43.498058
        }
      },
      {
        "id": 546448,
        "name": "Kolganov",
        "country": "RU",
        "coord": {
          "lon": 40.066669,
          "lat": 44.366669
        }
      },
      {
        "id": 500023,
        "name": "Rybatskiy",
        "country": "RU",
        "coord": {
          "lon": 44.166389,
          "lat": 44.799171
        }
      },
      
      
      {
        "id": 524894,
        "name": "Moskva",
        "country": "RU",
        "coord": {
          "lon": 37.606667,
          "lat": 55.761665
        }
      },
     
      {
        "id": 494806,
        "name": "Sheremetyevskiy",
        "country": "RU",
        "coord": {
          "lon": 37.491112,
          "lat": 55.98
        }
      },
      {
        "id": 467104,
        "name": "Yershovo",
        "country": "RU",
        "coord": {
          "lon": 36.858055,
          "lat": 55.771111
        }
      },
      {
        "id": 462352,
        "name": "Znamenka",
        "country": "RU",
        "coord": {
          "lon": 35.981392,
          "lat": 52.896671
        }
      },
      
      {
        "id": 524925,
        "name": "Moskovskaya Oblast’",
        "country": "RU",
        "coord": {
          "lon": 37.628334,
          "lat": 55.75639
        }
      },
      
      {
        "id": 510291,
        "name": "Peterhof",
        "country": "RU",
        "coord": {
          "lon": 29.9,
          "lat": 59.883331
        }
      },
      {
        "id": 518858,
        "name": "Grebnevo",
        "country": "RU",
        "coord": {
          "lon": 38.072777,
          "lat": 55.961945
        }
      },
      {
        "id": 499452,
        "name": "Safonovo",
        "country": "RU",
        "coord": {
          "lon": 33.216671,
          "lat": 55.150002
        }
      },
      {
        "id": 2027487,
        "name": "Arkhara",
        "country": "RU",
        "coord": {
          "lon": 130.084198,
          "lat": 49.4212
        }
      },
      {
        "id": 498817,
        "name": "Saint Petersburg",
        "country": "RU",
        "coord": {
          "lon": 30.264168,
          "lat": 59.894444
        }
      },
      {
        "id": 539907,
        "name": "Kudepsta",
        "country": "RU",
        "coord": {
          "lon": 39.896389,
          "lat": 43.494446
        }
      },
      {
        "id": 501847,
        "name": "Rochegda",
        "country": "RU",
        "coord": {
          "lon": 43.25,
          "lat": 62.799999
        }
      },
      {
        "id": 569339,
        "name": "Cheremisinovo",
        "country": "RU",
        "coord": {
          "lon": 37.264599,
          "lat": 51.885502
        }
      },
      {
        "id": 1496889,
        "name": "Novoomskiy",
        "country": "RU",
        "coord": {
          "lon": 73.301743,
          "lat": 54.841518
        }
      },
      {
        "id": 487928,
        "name": "Staryy Oskol",
        "country": "RU",
        "coord": {
          "lon": 37.841667,
          "lat": 51.296665
        }
      },
      {
        "id": 174968,
        "name": "Aygavan",
        "country": "AM",
        "coord": {
          "lon": 44.669842,
          "lat": 39.87326
        }
      },
      {
        "id": 616053,
        "name": "Yerazgavors",
        "country": "AM",
        "coord": {
          "lon": 43.75,
          "lat": 40.700001
        }
      },
      {
        "id": 616071,
        "name": "Voskevaz",
        "country": "AM",
        "coord": {
          "lon": 44.29509,
          "lat": 40.276779
        }
      },
      {
        "id": 616097,
        "name": "Verin Dvin",
        "country": "AM",
        "coord": {
          "lon": 44.590382,
          "lat": 40.024342
        }
      },
      {
        "id": 616119,
        "name": "Vaghashen",
        "country": "AM",
        "coord": {
          "lon": 45.328789,
          "lat": 40.13578
        }
      },
      {
        "id": 616120,
        "name": "Vahagni",
        "country": "AM",
        "coord": {
          "lon": 44.60873,
          "lat": 40.906979
        }
      },
      {
        "id": 616464,
        "name": "Lukashin",
        "country": "AM",
        "coord": {
          "lon": 44.018608,
          "lat": 40.175831
        }
      },
      {
        "id": 616492,
        "name": "Lanjaghbyur",
        "country": "AM",
        "coord": {
          "lon": 45.140381,
          "lat": 40.271461
        }
      },
      {
        "id": 616523,
        "name": "Kosh",
        "country": "AM",
        "coord": {
          "lon": 44.155842,
          "lat": 40.299992
        }
      },
      {
        "id": 616572,
        "name": "Karchaghbyur",
        "country": "AM",
        "coord": {
          "lon": 45.57785,
          "lat": 40.170479
        }
      },
      {
        "id": 616576,
        "name": "Karanlukh",
        "country": "AM",
        "coord": {
          "lon": 45.289719,
          "lat": 40.104439
        }
      },
      {
        "id": 616668,
        "name": "Getazat",
        "country": "AM",
        "coord": {
          "lon": 44.56369,
          "lat": 40.038441
        }
      },
      {
        "id": 616763,
        "name": "Darpas",
        "country": "AM",
        "coord": {
          "lon": 44.424938,
          "lat": 40.836739
        }
      },
      {
        "id": 616789,
        "name": "Bjni",
        "country": "AM",
        "coord": {
          "lon": 44.648121,
          "lat": 40.455898
        }
      },
      {
        "id": 616791,
        "name": "Byurakan",
        "country": "AM",
        "coord": {
          "lon": 44.271381,
          "lat": 40.338001
        }
      },
      {
        "id": 616806,
        "name": "Bazum",
        "country": "AM",
        "coord": {
          "lon": 44.439781,
          "lat": 40.86763
        }
      },
      {
        "id": 616828,
        "name": "Bagratashen",
        "country": "AM",
        "coord": {
          "lon": 44.817371,
          "lat": 41.24358
        }
      },
      {
        "id": 616853,
        "name": "Aknalich",
        "country": "AM",
        "coord": {
          "lon": 44.149799,
          "lat": 40.14315
        }
      },
      {
        "id": 616879,
        "name": "Ashnak",
        "country": "AM",
        "coord": {
          "lon": 43.91848,
          "lat": 40.328869
        }
      },
      {
        "id": 616921,
        "name": "Arevashat",
        "country": "AM",
        "coord": {
          "lon": 44.370682,
          "lat": 40.142502
        }
      },
      {
        "id": 616954,
        "name": "Apaga",
        "country": "AM",
        "coord": {
          "lon": 44.251572,
          "lat": 40.096661
        }
      },
      {
        "id": 616955,
        "name": "Anushavan",
        "country": "AM",
        "coord": {
          "lon": 43.977558,
          "lat": 40.650131
        }
      },
      {
        "id": 616981,
        "name": "Akunk",
        "country": "AM",
        "coord": {
          "lon": 44.684811,
          "lat": 40.268829
        }
      },
      {
        "id": 617003,
        "name": "Aghavnadzor",
        "country": "AM",
        "coord": {
          "lon": 44.695808,
          "lat": 40.581951
        }
      },
      {
        "id": 617027,
        "name": "Abovyan",
        "country": "AM",
        "coord": {
          "lon": 44.547421,
          "lat": 40.048512
        }
      },
      {
        "id": 823755,
        "name": "Artsvaberd",
        "country": "AM",
        "coord": {
          "lon": 45.471111,
          "lat": 40.833611
        }
      },
      {
        "id": 823791,
        "name": "Nor Yerznka",
        "country": "AM",
        "coord": {
          "lon": 44.404831,
          "lat": 40.31356
        }
      },
      {
        "id": 823805,
        "name": "Lenughi",
        "country": "AM",
        "coord": {
          "lon": 43.96484,
          "lat": 40.125622
        }
      },
      {
        "id": 823808,
        "name": "Gay",
        "country": "AM",
        "coord": {
          "lon": 44.305561,
          "lat": 40.083889
        }
      },
      {
        "id": 866137,
        "name": "Mrgavet",
        "country": "AM",
        "coord": {
          "lon": 44.482521,
          "lat": 40.02779
        }
      },
      {
        "id": 866138,
        "name": "Arevabuyr",
        "country": "AM",
        "coord": {
          "lon": 44.469341,
          "lat": 40.037121
        }
      },
      {
        "id": 616199,
        "name": "Spitak",
        "country": "AM",
        "coord": {
          "lon": 44.2673,
          "lat": 40.832199
        }
      },
      {
        "id": 174704,
        "name": "Zangakatun",
        "country": "AM",
        "coord": {
          "lon": 45.04063,
          "lat": 39.821201
        }
      },
      {
        "id": 174716,
        "name": "Vernashen",
        "country": "AM",
        "coord": {
          "lon": 45.363892,
          "lat": 39.792358
        }
      },
      {
        "id": 174717,
        "name": "Verishen",
        "country": "AM",
        "coord": {
          "lon": 46.31221,
          "lat": 39.535568
        }
      },
      {
        "id": 174725,
        "name": "Vedi",
        "country": "AM",
        "coord": {
          "lon": 44.722172,
          "lat": 39.914211
        }
      },
      {
        "id": 174726,
        "name": "Vayk",
        "country": "AM",
        "coord": {
          "lon": 45.46653,
          "lat": 39.691002
        }
      },
      {
        "id": 174755,
        "name": "Surenavan",
        "country": "AM",
        "coord": {
          "lon": 44.799999,
          "lat": 39.75
        }
      },
      {
        "id": 174775,
        "name": "Shahumyan",
        "country": "AM",
        "coord": {
          "lon": 44.569729,
          "lat": 39.93845
        }
      },
      {
        "id": 174776,
        "name": "Shatin",
        "country": "AM",
        "coord": {
          "lon": 45.301861,
          "lat": 39.835678
        }
      },
      {
        "id": 174782,
        "name": "Shaghat",
        "country": "AM",
        "coord": {
          "lon": 45.91433,
          "lat": 39.562531
        }
      },
      {
        "id": 174794,
        "name": "Rrind",
        "country": "AM",
        "coord": {
          "lon": 45.17907,
          "lat": 39.76022
        }
      },
      {
        "id": 174805,
        "name": "Noyakert",
        "country": "AM",
        "coord": {
          "lon": 44.668991,
          "lat": 39.8312
        }
      },
      {
        "id": 174820,
        "name": "Mrgavan",
        "country": "AM",
        "coord": {
          "lon": 44.53318,
          "lat": 39.971668
        }
      },
      {
        "id": 174828,
        "name": "Malishka",
        "country": "AM",
        "coord": {
          "lon": 45.390041,
          "lat": 39.737579
        }
      },
      {
        "id": 174849,
        "name": "Khndzoresk",
        "country": "AM",
        "coord": {
          "lon": 46.432838,
          "lat": 39.512241
        }
      },
      {
        "id": 174907,
        "name": "Getap",
        "country": "AM",
        "coord": {
          "lon": 45.306641,
          "lat": 39.763062
        }
      },
      {
        "id": 174918,
        "name": "Dzorastan",
        "country": "AM",
        "coord": {
          "lon": 46.357201,
          "lat": 39.270592
        }
      },
      {
        "id": 174931,
        "name": "Dalar",
        "country": "AM",
        "coord": {
          "lon": 44.526489,
          "lat": 39.976528
        }
      },
      {
        "id": 174940,
        "name": "Burastan",
        "country": "AM",
        "coord": {
          "lon": 44.5,
          "lat": 39.98333
        }
      },
      {
        "id": 174941,
        "name": "Brun",
        "country": "AM",
        "coord": {
          "lon": 46.30732,
          "lat": 39.534908
        }
      },
      {
        "id": 174942,
        "name": "Brrnakot",
        "country": "AM",
        "coord": {
          "lon": 45.972408,
          "lat": 39.497421
        }
      },
      {
        "id": 174947,
        "name": "Berkanush",
        "country": "AM",
        "coord": {
          "lon": 44.513939,
          "lat": 39.977261
        }
      },
      {
        "id": 174964,
        "name": "Aygezard",
        "country": "AM",
        "coord": {
          "lon": 44.602299,
          "lat": 39.954361
        }
      },
      {
        "id": 174965,
        "name": "Aygepat",
        "country": "AM",
        "coord": {
          "lon": 44.599819,
          "lat": 39.95845
        }
      },
      {
        "id": 174969,
        "name": "Avshar",
        "country": "AM",
        "coord": {
          "lon": 44.679298,
          "lat": 39.8536
        }
      },
      {
        "id": 174980,
        "name": "Yeghegis",
        "country": "AM",
        "coord": {
          "lon": 45.36002,
          "lat": 39.871811
        }
      },
      {
        "id": 174983,
        "name": "Armash",
        "country": "AM",
        "coord": {
          "lon": 44.809021,
          "lat": 39.76532
        }
      },
      {
        "id": 174984,
        "name": "Areni",
        "country": "AM",
        "coord": {
          "lon": 45.179909,
          "lat": 39.719131
        }
      },
      {
        "id": 174997,
        "name": "Angeghakot",
        "country": "AM",
        "coord": {
          "lon": 45.941231,
          "lat": 39.570171
        }
      },
      {
        "id": 175002,
        "name": "Aghavnadzor",
        "country": "AM",
        "coord": {
          "lon": 45.227531,
          "lat": 39.782219
        }
      },
      {
        "id": 175006,
        "name": "Agarakadzor",
        "country": "AM",
        "coord": {
          "lon": 45.352741,
          "lat": 39.734051
        }
      },
      {
        "id": 616034,
        "name": "Zovuni",
        "country": "AM",
        "coord": {
          "lon": 44.42889,
          "lat": 40.51083
        }
      },
      {
        "id": 616094,
        "name": "Verin Getashen",
        "country": "AM",
        "coord": {
          "lon": 45.250679,
          "lat": 40.133282
        }
      },
      {
        "id": 616100,
        "name": "Verin Artashat",
        "country": "AM",
        "coord": {
          "lon": 44.585461,
          "lat": 39.990459
        }
      },
      {
        "id": 616101,
        "name": "Verin Akhtala",
        "country": "AM",
        "coord": {
          "lon": 44.75811,
          "lat": 41.168381
        }
      },
      {
        "id": 616108,
        "name": "Vardenis",
        "country": "AM",
        "coord": {
          "lon": 45.731098,
          "lat": 40.18272
        }
      },
      {
        "id": 616109,
        "name": "Vardenik",
        "country": "AM",
        "coord": {
          "lon": 45.433418,
          "lat": 40.139278
        }
      },
      {
        "id": 616138,
        "name": "Tsovak",
        "country": "AM",
        "coord": {
          "lon": 45.632858,
          "lat": 40.182541
        }
      },
      {
        "id": 616139,
        "name": "Tsovagyugh",
        "country": "AM",
        "coord": {
          "lon": 44.957378,
          "lat": 40.630291
        }
      },
      {
        "id": 616150,
        "name": "Tsaghkunk",
        "country": "AM",
        "coord": {
          "lon": 44.27026,
          "lat": 40.180752
        }
      },
      {
        "id": 616158,
        "name": "Tsaghkahovit",
        "country": "AM",
        "coord": {
          "lon": 44.222408,
          "lat": 40.634281
        }
      },
      {
        "id": 616159,
        "name": "Tsaghkaber",
        "country": "AM",
        "coord": {
          "lon": 44.10144,
          "lat": 40.798489
        }
      },
      {
        "id": 616160,
        "name": "Tsaghkadzor",
        "country": "AM",
        "coord": {
          "lon": 44.720249,
          "lat": 40.532589
        }
      },
      {
        "id": 616174,
        "name": "Tazagyugh",
        "country": "AM",
        "coord": {
          "lon": 45.19096,
          "lat": 40.138199
        }
      },
      {
        "id": 616184,
        "name": "Tandzut",
        "country": "AM",
        "coord": {
          "lon": 44.07476,
          "lat": 40.070148
        }
      },
      {
        "id": 616187,
        "name": "Talin",
        "country": "AM",
        "coord": {
          "lon": 43.873871,
          "lat": 40.384281
        }
      },
      {
        "id": 616202,
        "name": "Spandaryan",
        "country": "AM",
        "coord": {
          "lon": 44.015511,
          "lat": 40.661049
        }
      },
      {
        "id": 616224,
        "name": "Shirak",
        "country": "AM",
        "coord": {
          "lon": 43.915821,
          "lat": 40.84042
        }
      },
      {
        "id": 616231,
        "name": "Shenavan",
        "country": "AM",
        "coord": {
          "lon": 43.928761,
          "lat": 40.054859
        }
      },
      {
        "id": 616330,
        "name": "Odzun",
        "country": "AM",
        "coord": {
          "lon": 44.613411,
          "lat": 41.053211
        }
      },
      {
        "id": 616340,
        "name": "Nor Gyugh",
        "country": "AM",
        "coord": {
          "lon": 44.6563,
          "lat": 40.2673
        }
      },
      {
        "id": 616421,
        "name": "Meghrashen",
        "country": "AM",
        "coord": {
          "lon": 43.957829,
          "lat": 40.672588
        }
      },
      {
        "id": 616424,
        "name": "Meghradzor",
        "country": "AM",
        "coord": {
          "lon": 44.65147,
          "lat": 40.60611
        }
      },
      {
        "id": 616441,
        "name": "Marmarashen",
        "country": "AM",
        "coord": {
          "lon": 44.470119,
          "lat": 40.057339
        }
      },
      {
        "id": 616522,
        "name": "Kotayk",
        "country": "AM",
        "coord": {
          "lon": 44.660358,
          "lat": 40.275341
        }
      },
      {
        "id": 616535,
        "name": "Hnaberd",
        "country": "AM",
        "coord": {
          "lon": 44.140579,
          "lat": 40.637211
        }
      },
      {
        "id": 616648,
        "name": "Gugark",
        "country": "AM",
        "coord": {
          "lon": 44.540249,
          "lat": 40.8046
        }
      },
      {
        "id": 616650,
        "name": "Tsiatsan",
        "country": "AM",
        "coord": {
          "lon": 44.266079,
          "lat": 40.186901
        }
      },
      {
        "id": 616657,
        "name": "Goght",
        "country": "AM",
        "coord": {
          "lon": 44.78093,
          "lat": 40.134949
        }
      },
      {
        "id": 616659,
        "name": "Gogaran",
        "country": "AM",
        "coord": {
          "lon": 44.19915,
          "lat": 40.892551
        }
      },
      {
        "id": 616669,
        "name": "Getashen",
        "country": "AM",
        "coord": {
          "lon": 43.942032,
          "lat": 40.044048
        }
      },
      {
        "id": 616716,
        "name": "Dzoragyugh",
        "country": "AM",
        "coord": {
          "lon": 45.183361,
          "lat": 40.169571
        }
      },
      {
        "id": 616741,
        "name": "Dvin",
        "country": "AM",
        "coord": {
          "lon": 44.583759,
          "lat": 40.01984
        }
      },
      {
        "id": 616902,
        "name": "Armavir",
        "country": "AM",
        "coord": {
          "lon": 44.053631,
          "lat": 40.086578
        }
      },
      {
        "id": 823807,
        "name": "Metsamor",
        "country": "AM",
        "coord": {
          "lon": 44.11998,
          "lat": 40.14481
        }
      },
      {
        "id": 823809,
        "name": "Baghramyan",
        "country": "AM",
        "coord": {
          "lon": 44.36832,
          "lat": 40.193439
        }
      },
      {
        "id": 823810,
        "name": "Musalerr",
        "country": "AM",
        "coord": {
          "lon": 44.378941,
          "lat": 40.153931
        }
      },
      {
        "id": 866092,
        "name": "Sayat-Nova",
        "country": "AM",
        "coord": {
          "lon": 44.39846,
          "lat": 40.07428
        }
      },
      {
        "id": 866093,
        "name": "Voskehat",
        "country": "AM",
        "coord": {
          "lon": 44.329182,
          "lat": 40.141579
        }
      },
      {
        "id": 866095,
        "name": "Griboyedov",
        "country": "AM",
        "coord": {
          "lon": 44.27169,
          "lat": 40.113071
        }
      },
      {
        "id": 866097,
        "name": "Amberd",
        "country": "AM",
        "coord": {
          "lon": 44.27227,
          "lat": 40.24192
        }
      },
      {
        "id": 866098,
        "name": "Aygek",
        "country": "AM",
        "coord": {
          "lon": 44.383331,
          "lat": 40.18861
        }
      },
      {
        "id": 616417,
        "name": "Metsamor",
        "country": "AM",
        "coord": {
          "lon": 44.289619,
          "lat": 40.073021
        }
      },
      {
        "id": 174982,
        "name": "Republic of Armenia",
        "country": "AM",
        "coord": {
          "lon": 45,
          "lat": 40
        }
      },
      {
        "id": 174979,
        "name": "Artashat",
        "country": "AM",
        "coord": {
          "lon": 44.544472,
          "lat": 39.961441
        }
      },
      {
        "id": 616051,
        "name": "Yerevan",
        "country": "AM",
        "coord": {
          "lon": 44.5,
          "lat": 40.183331
        }
      },
       {
        "id": 828262,
        "name": "Kotayk’i Marz",
        "country": "AM",
        "coord": {
          "lon": 44.75,
          "lat": 40.416672
        }
      },
      {
        "id": 617026,
        "name": "Abovyan",
        "country": "AM",
        "coord": {
          "lon": 44.62656,
          "lat": 40.26741
        }
      },
      {
        "id": 409313,
        "name": "Ararati Marz",
        "country": "AM",
        "coord": {
          "lon": 44.833328,
          "lat": 39.916672
        }
      },
      {
        "id": 828263,
        "name": "Lorru Marz",
        "country": "AM",
        "coord": {
          "lon": 44.5,
          "lat": 41
        }
      },
      {
        "id": 616530,
        "name": "Vanadzor",
        "country": "AM",
        "coord": {
          "lon": 44.4939,
          "lat": 40.804562
        }
      },
      {
        "id": 616629,
        "name": "Hrazdan",
        "country": "AM",
        "coord": {
          "lon": 44.766201,
          "lat": 40.497478
        }
      },
      {
        "id": 828264,
        "name": "Shiraki Marz",
        "country": "AM",
        "coord": {
          "lon": 43.833328,
          "lat": 40.75
        }
      },
      {
        "id": 616971,
        "name": "Amasia",
        "country": "AM",
        "coord": {
          "lon": 43.787201,
          "lat": 40.954418
        }
      },
      {
        "id": 823816,
        "name": "Masis",
        "country": "AM",
        "coord": {
          "lon": 44.485828,
          "lat": 40.013889
        }
      },
      {
        "id": 616724,
        "name": "Jrashen",
        "country": "AM",
        "coord": {
          "lon": 44.512589,
          "lat": 40.052761
        }
      },
      {
        "id": 409314,
        "name": "Syunik’i Marz",
        "country": "AM",
        "coord": {
          "lon": 46.25,
          "lat": 39.333328
        }
      },
      {
        "id": 175007,
        "name": "Agarak",
        "country": "AM",
        "coord": {
          "lon": 46.544601,
          "lat": 39.206841
        }
      },
      {
        "id": 174875,
        "name": "Kapan",
        "country": "AM",
        "coord": {
          "lon": 46.405762,
          "lat": 39.207539
        }
      },
      {
        "id": 174895,
        "name": "Goris",
        "country": "AM",
        "coord": {
          "lon": 46.338161,
          "lat": 39.512878
        }
      },
      {
        "id": 616790,
        "name": "Byureghavan",
        "country": "AM",
        "coord": {
          "lon": 44.59396,
          "lat": 40.31485
        }
      },
      {
        "id": 828261,
        "name": "Geghark’unik’i Marz",
        "country": "AM",
        "coord": {
          "lon": 45.416672,
          "lat": 40.25
        }
      },
      {
        "id": 616117,
        "name": "Vahan",
        "country": "AM",
        "coord": {
          "lon": 45.39769,
          "lat": 40.575489
        }
      },
      {
        "id": 616599,
        "name": "Gavarr",
        "country": "AM",
        "coord": {
          "lon": 45.123859,
          "lat": 40.353981
        }
      },
      {
        "id": 828265,
        "name": "Tavushi Marz",
        "country": "AM",
        "coord": {
          "lon": 45.166672,
          "lat": 40.916672
        }
      },
      {
        "id": 616627,
        "name": "Ijevan",
        "country": "AM",
        "coord": {
          "lon": 45.14922,
          "lat": 40.878319
        }
      },
      {
        "id": 616635,
        "name": "Gyumri",
        "country": "AM",
        "coord": {
          "lon": 43.84528,
          "lat": 40.794201
        }
      },
      {
        "id": 174812,
        "name": "Nerk’in Kamarlu",
        "country": "AM",
        "coord": {
          "lon": 44.549999,
          "lat": 39.950001
        }
      },
      {
        "id": 616350,
        "name": "Norashen",
        "country": "AM",
        "coord": {
          "lon": 44.58952,
          "lat": 39.999599
        }
      },
      {
        "id": 616786,
        "name": "Chambarak",
        "country": "AM",
        "coord": {
          "lon": 45.35498,
          "lat": 40.59655
        }
      },
      {
        "id": 174823,
        "name": "Meghri",
        "country": "AM",
        "coord": {
          "lon": 46.244579,
          "lat": 38.90292
        }
      },
      {
        "id": 616446,
        "name": "Maralik",
        "country": "AM",
        "coord": {
          "lon": 43.868622,
          "lat": 40.574532
        }
      },
      {
        "id": 828259,
        "name": "Aragatsotni Marz",
        "country": "AM",
        "coord": {
          "lon": 44.166672,
          "lat": 40.416672
        }
      },
      {
        "id": 616953,
        "name": "Aparan",
        "country": "AM",
        "coord": {
          "lon": 44.358898,
          "lat": 40.593231
        }
      },
      {
        "id": 616178,
        "name": "Tashir",
        "country": "AM",
        "coord": {
          "lon": 44.284618,
          "lat": 41.12072
        }
      },
      {
        "id": 616974,
        "name": "Alaverdi",
        "country": "AM",
        "coord": {
          "lon": 44.673161,
          "lat": 41.09766
        }
      },
      {
        "id": 616479,
        "name": "Spitak",
        "country": "AM",
        "coord": {
          "lon": 44.274349,
          "lat": 40.795319
        }
      },
      {
        "id": 616655,
        "name": "Gomadzor",
        "country": "AM",
        "coord": {
          "lon": 44.95343,
          "lat": 40.55724
        }
      },
      {
        "id": 616438,
        "name": "Martuni",
        "country": "AM",
        "coord": {
          "lon": 45.304501,
          "lat": 40.13768
        }
      },
      {
        "id": 866096,
        "name": "Echmiadzin",
        "country": "AM",
        "coord": {
          "lon": 44.33939,
          "lat": 40.16531
        }
      },
      {
        "id": 409315,
        "name": "Vayots’ Dzori Marz",
        "country": "AM",
        "coord": {
          "lon": 45.416672,
          "lat": 39.75
        }
      },
      {
        "id": 174904,
        "name": "Gladzor",
        "country": "AM",
        "coord": {
          "lon": 45.35043,
          "lat": 39.781231
        }
      },
      {
        "id": 616742,
        "name": "Dsegh",
        "country": "AM",
        "coord": {
          "lon": 44.650028,
          "lat": 40.9617
        }
      },
      {
        "id": 793702,
        "name": "Verin Jrashen",
        "country": "AM",
        "coord": {
          "lon": 44.563568,
          "lat": 40.138569
        }
      },
      {
        "id": 616353,
        "name": "Nor Aresh",
        "country": "AM",
        "coord": {
          "lon": 44.52618,
          "lat": 40.14101
        }
      },
      {
        "id": 174710,
        "name": "Yeghegnadzor",
        "country": "AM",
        "coord": {
          "lon": 45.33239,
          "lat": 39.763889
        }
      },
      {
        "id": 616785,
        "name": "Ch’arents’avan",
        "country": "AM",
        "coord": {
          "lon": 44.648369,
          "lat": 40.411629
        }
      },
      {
        "id": 616837,
        "name": "Azat",
        "country": "AM",
        "coord": {
          "lon": 45.87257,
          "lat": 40.1772
        }
      },
      {
        "id": 174972,
        "name": "Hatsavan",
        "country": "AM",
        "coord": {
          "lon": 45.97047,
          "lat": 39.46405
        }
      },
      {
        "id": 616333,
        "name": "Noyemberyan",
        "country": "AM",
        "coord": {
          "lon": 44.999168,
          "lat": 41.17244
        }
      },
      {
        "id": 616752,
        "name": "Dilijan",
        "country": "AM",
        "coord": {
          "lon": 44.863621,
          "lat": 40.741032
        }
      },
      {
        "id": 174884,
        "name": "Jermuk",
        "country": "AM",
        "coord": {
          "lon": 45.672298,
          "lat": 39.841728
        }
      },
      {
        "id": 616525,
        "name": "Koghb",
        "country": "AM",
        "coord": {
          "lon": 44.976082,
          "lat": 41.181839
        }
      },
      {
        "id": 616802,
        "name": "Berd",
        "country": "AM",
        "coord": {
          "lon": 45.389851,
          "lat": 40.881489
        }
      },
      {
        "id": 616881,
        "name": "Arzni",
        "country": "AM",
        "coord": {
          "lon": 44.596642,
          "lat": 40.296261
        }
      },
      {
        "id": 616230,
        "name": "Shenavan",
        "country": "AM",
        "coord": {
          "lon": 44.382999,
          "lat": 40.48296
        }
      },
      {
        "id": 616712,
        "name": "Dzoraghbyur",
        "country": "AM",
        "coord": {
          "lon": 44.641499,
          "lat": 40.204121
        }
      },
      {
        "id": 174991,
        "name": "Ararat",
        "country": "AM",
        "coord": {
          "lon": 44.704891,
          "lat": 39.831661
        }
      },
      {
        "id": 616062,
        "name": "Ejmiatsin",
        "country": "AM",
        "coord": {
          "lon": 44.294621,
          "lat": 40.165569
        }
      },
      {
        "id": 616250,
        "name": "Sevan",
        "country": "AM",
        "coord": {
          "lon": 44.948681,
          "lat": 40.548401
        }
      },
      {
        "id": 616435,
        "name": "Masis",
        "country": "AM",
        "coord": {
          "lon": 44.435909,
          "lat": 40.067619
        }
      },
      {
        "id": 616631,
        "name": "Armavir",
        "country": "AM",
        "coord": {
          "lon": 44.038151,
          "lat": 40.154461
        }
      },
      {
        "id": 616877,
        "name": "Ashtarak",
        "country": "AM",
        "coord": {
          "lon": 44.362041,
          "lat": 40.299099
        }
      },
      {
        "id": 6441676,
        "name": "Wittenheim",
        "country": "FR",
        "coord": {
          "lon": 7.33333,
          "lat": 47.816669
        }
      },
      {
        "id": 6438569,
        "name": "Wattrelos",
        "country": "FR",
        "coord": {
          "lon": 3.21667,
          "lat": 50.700001
        }
      },
      {
        "id": 6454050,
        "name": "Vitré",
        "country": "FR",
        "coord": {
          "lon": -1.2,
          "lat": 48.133331
        }
      },
      {
        "id": 6446231,
        "name": "Viry-Châtillon",
        "country": "FR",
        "coord": {
          "lon": 2.38333,
          "lat": 48.666672
        }
      },
      {
        "id": 6452039,
        "name": "Villeneuve-le-Roi",
        "country": "FR",
        "coord": {
          "lon": 2.41667,
          "lat": 48.73333
        }
      },
      {
        "id": 6453748,
        "name": "Vierzon",
        "country": "FR",
        "coord": {
          "lon": 2.08333,
          "lat": 47.216671
        }
      },
      {
        "id": 6446218,
        "name": "Verrières-le-Buisson",
        "country": "FR",
        "coord": {
          "lon": 2.26667,
          "lat": 48.75
        }
      },
      {
        "id": 6457368,
        "name": "Arrondissement d'Antony",
        "country": "FR",
        "coord": {
          "lon": 2.3006,
          "lat": 48.7617
        }
      },
      {
        "id": 6425695,
        "name": "Vallauris",
        "country": "FR",
        "coord": {
          "lon": 7.05,
          "lat": 43.583328
        }
      },
      {
        "id": 6438526,
        "name": "Tourcoing",
        "country": "FR",
        "coord": {
          "lon": 3.15,
          "lat": 50.716671
        }
      },
      {
        "id": 6446342,
        "name": "Taverny",
        "country": "FR",
        "coord": {
          "lon": 2.21667,
          "lat": 49.033329
        }
      },
      {
        "id": 6446340,
        "name": "Soisy-sous-Montmorency",
        "country": "FR",
        "coord": {
          "lon": 2.3,
          "lat": 48.98333
        }
      },
      {
        "id": 6438498,
        "name": "Sin-le-Noble",
        "country": "FR",
        "coord": {
          "lon": 3.11667,
          "lat": 50.366669
        }
      },
      {
        "id": 6451981,
        "name": "Sèvres",
        "country": "FR",
        "coord": {
          "lon": 2.2,
          "lat": 48.816669
        }
      },
      {
        "id": 6427088,
        "name": "Salon-de-Provence",
        "country": "FR",
        "coord": {
          "lon": 5.1,
          "lat": 43.633331
        }
      },
      {
        "id": 6455342,
        "name": "Saint-Ouen",
        "country": "FR",
        "coord": {
          "lon": 2.33333,
          "lat": 48.900002
        }
      },
      {
        "id": 6441760,
        "name": "Saint-Fons",
        "country": "FR",
        "coord": {
          "lon": 4.86667,
          "lat": 45.700001
        }
      },
      {
        "id": 6454369,
        "name": "Saint-Avold",
        "country": "FR",
        "coord": {
          "lon": 6.7,
          "lat": 49.099998
        }
      },
      {
        "id": 6454153,
        "name": "Rezé",
        "country": "FR",
        "coord": {
          "lon": -1.56667,
          "lat": 47.200001
        }
      },
      {
        "id": 6454341,
        "name": "Pontivy",
        "country": "FR",
        "coord": {
          "lon": -2.98333,
          "lat": 48.066669
        }
      },
      {
        "id": 6454014,
        "name": "Pessac",
        "country": "FR",
        "coord": {
          "lon": -0.61667,
          "lat": 44.799999
        }
      },
      {
        "id": 6446184,
        "name": "Palaiseau",
        "country": "FR",
        "coord": {
          "lon": 2.25,
          "lat": 48.716671
        }
      },
      {
        "id": 6443784,
        "name": "Ozoir-la-Ferrière",
        "country": "FR",
        "coord": {
          "lon": 2.66667,
          "lat": 48.76667
        }
      },
      {
        "id": 6441724,
        "name": "Oullins",
        "country": "FR",
        "coord": {
          "lon": 4.8,
          "lat": 45.716671
        }
      },
      {
        "id": 6446721,
        "name": "Mougins",
        "country": "FR",
        "coord": {
          "lon": 7,
          "lat": 43.599998
        }
      },
      {
        "id": 6446177,
        "name": "Morsang-sur-Orge",
        "country": "FR",
        "coord": {
          "lon": 2.35,
          "lat": 48.666672
        }
      },
      {
        "id": 6430140,
        "name": "Montélimar",
        "country": "FR",
        "coord": {
          "lon": 4.75,
          "lat": 44.566669
        }
      },
      {
        "id": 6453858,
        "name": "Montbéliard",
        "country": "FR",
        "coord": {
          "lon": 6.8,
          "lat": 47.51667
        }
      },
      {
        "id": 6452024,
        "name": "Maisons-Alfort",
        "country": "FR",
        "coord": {
          "lon": 2.43333,
          "lat": 48.799999
        }
      },
      {
        "id": 6430468,
        "name": "Louviers",
        "country": "FR",
        "coord": {
          "lon": 1.16667,
          "lat": 49.216671
        }
      },
      {
        "id": 6452023,
        "name": "Limeil-Brévannes",
        "country": "FR",
        "coord": {
          "lon": 2.4893,
          "lat": 48.7467
        }
      },
      {
        "id": 6457185,
        "name": "Les Pavillons-sous-Bois",
        "country": "FR",
        "coord": {
          "lon": 2.51667,
          "lat": 48.900002
        }
      },
      {
        "id": 6432528,
        "name": "Lattes",
        "country": "FR",
        "coord": {
          "lon": 3.9,
          "lat": 43.566669
        }
      },
      {
        "id": 6446146,
        "name": "Grigny",
        "country": "FR",
        "coord": {
          "lon": 2.39382,
          "lat": 48.653931
        }
      },
      {
        "id": 6446274,
        "name": "Goussainville",
        "country": "FR",
        "coord": {
          "lon": 2.474,
          "lat": 49.032001
        }
      },
      {
        "id": 6454157,
        "name": "Gien",
        "country": "FR",
        "coord": {
          "lon": 2.6297,
          "lat": 47.689201
        }
      },
      {
        "id": 6451993,
        "name": "Gagny",
        "country": "FR",
        "coord": {
          "lon": 2.53333,
          "lat": 48.883331
        }
      },
      {
        "id": 6455107,
        "name": "Firminy",
        "country": "FR",
        "coord": {
          "lon": 4.3,
          "lat": 45.383331
        }
      },
      {
        "id": 6433192,
        "name": "Échirolles",
        "country": "FR",
        "coord": {
          "lon": 5.71667,
          "lat": 45.133331
        }
      },
      {
        "id": 6441821,
        "name": "Décines-Charpieu",
        "country": "FR",
        "coord": {
          "lon": 4.9598,
          "lat": 45.7686
        }
      },
      {
        "id": 6455404,
        "name": "Dammarie-les-Lys",
        "country": "FR",
        "coord": {
          "lon": 2.65,
          "lat": 48.51667
        }
      },
      {
        "id": 6455339,
        "name": "Colombes",
        "country": "FR",
        "coord": {
          "lon": 2.25,
          "lat": 48.916672
        }
      },
      {
        "id": 6453697,
        "name": "Cognac",
        "country": "FR",
        "coord": {
          "lon": -0.33333,
          "lat": 45.700001
        }
      },
      {
        "id": 6428545,
        "name": "Chenôve",
        "country": "FR",
        "coord": {
          "lon": 5,
          "lat": 47.283329
        }
      },
      {
        "id": 6443604,
        "name": "Chelles",
        "country": "FR",
        "coord": {
          "lon": 2.6,
          "lat": 48.883331
        }
      },
      {
        "id": 6618272,
        "name": "Cesson-Sévigné",
        "country": "FR",
        "coord": {
          "lon": -1.603,
          "lat": 48.121201
        }
      },
      {
        "id": 3028097,
        "name": "Cayenne",
        "country": "FR",
        "coord": {
          "lon": 1.62803,
          "lat": 49.558578
        }
      },
      {
        "id": 6439436,
        "name": "Carvin",
        "country": "FR",
        "coord": {
          "lon": 2.96667,
          "lat": 50.48333
        }
      },
      {
        "id": 6452010,
        "name": "Bonneuil-sur-Marne",
        "country": "FR",
        "coord": {
          "lon": 2.48333,
          "lat": 48.76667
        }
      },
      {
        "id": 6455331,
        "name": "Belfort",
        "country": "FR",
        "coord": {
          "lon": 6.86667,
          "lat": 47.633331
        }
      },
      {
        "id": 6447202,
        "name": "Bayeux",
        "country": "FR",
        "coord": {
          "lon": -0.703,
          "lat": 49.278599
        }
      },
      {
        "id": 6613166,
        "name": "Bagnolet",
        "country": "FR",
        "coord": {
          "lon": 2.41667,
          "lat": 48.866669
        }
      },
      {
        "id": 6450845,
        "name": "Autun",
        "country": "FR",
        "coord": {
          "lon": 4.3,
          "lat": 46.950001
        }
      },
      {
        "id": 6448311,
        "name": "Auch",
        "country": "FR",
        "coord": {
          "lon": 0.58333,
          "lat": 43.650002
        }
      },
      {
        "id": 6451006,
        "name": "Annecy-le-Vieux",
        "country": "FR",
        "coord": {
          "lon": 6.15,
          "lat": 45.916672
        }
      },
      {
        "id": 6452610,
        "name": "Alfortville",
        "country": "FR",
        "coord": {
          "lon": 2.41667,
          "lat": 48.799999
        }
      },
      {
        "id": 6455394,
        "name": "Les Ulis",
        "country": "FR",
        "coord": {
          "lon": 2.16932,
          "lat": 48.68174
        }
      }

]